Nombre,Latitud,Longitud,Volumen_Almacenado_m3
Embalse_Chilina,-16.2075,-71.2092,1500000
Embalse_Aguada_Pillones,-15.7833,-71.0833,1400000
Embalse_Aguada_Chalhuanca,-15.7967,-71.0833,1000000
Embalse_Aguada_Blanca,-16.2464,-71.3478,1200000
Embalse_El_Frayle,-16.15,-71.1833,900000
